City_ID,City,Lat,Lng,Max Temp,Humidity,Cloudiness,Wind Speed,Country,Current Description
0,Thompson,55.7435,-97.8558,73.56,33,40,11.5,CA,scattered clouds
1,Concepcion,-36.827,-73.0498,51.6,62,100,14.97,CL,overcast clouds
2,Atuona,-9.8,-139.0333,76.8,81,29,28.16,PF,light rain
3,Bushehr,28.9684,50.8385,91.15,62,0,0.92,IR,clear sky
4,Jamestown,42.097,-79.2353,70.02,74,100,10.36,US,overcast clouds
5,Busselton,-33.65,115.3333,47.44,84,83,5.46,AU,broken clouds
6,Severo-Kurilsk,50.6789,156.125,57.11,92,100,17.74,RU,light rain
7,Mataura,-46.1927,168.8643,44.47,92,95,1.92,NZ,overcast clouds
8,Qaanaaq,77.484,-69.3632,33.49,83,80,1.39,GL,broken clouds
9,Omsukchan,62.5333,155.8,40.03,91,100,6.69,RU,overcast clouds
10,Skibbereen,51.55,-9.2667,60.12,93,68,7.43,IE,broken clouds
11,Cape Town,-33.9258,18.4232,57.9,86,0,14.0,ZA,clear sky
12,Meulaboh,4.1363,96.1285,74.03,89,100,5.75,ID,overcast clouds
13,Vaini,-21.2,-175.2,78.96,89,20,6.91,TO,few clouds
14,Alekseyevka,50.6309,38.6903,47.03,55,63,6.93,RU,broken clouds
15,Catuday,16.2923,119.8062,79.77,83,74,3.29,PH,broken clouds
16,Klaksvik,62.2266,-6.589,58.12,97,57,18.16,FO,light rain
17,Nikolskoye,59.7035,30.7861,46.78,94,52,4.79,RU,broken clouds
18,Ushuaia,-54.8,-68.3,38.86,65,20,2.3,AR,few clouds
19,Saint-Gedeon,48.5001,-71.7658,75.11,50,10,2.3,CA,clear sky
20,Bobo Dioulasso,11.1771,-4.2979,73.85,100,20,1.14,BF,few clouds
21,Ilhabela,-23.7781,-45.3581,66.42,84,5,6.31,BR,clear sky
22,Butaritari,3.0707,172.7902,81.72,72,100,14.7,KI,overcast clouds
23,Nome,64.5011,-165.4064,50.16,76,100,9.22,US,overcast clouds
24,Devonport,-41.1667,146.35,54.01,91,99,12.8,AU,overcast clouds
25,Kloulklubed,7.0419,134.2556,75.7,77,99,5.44,PW,overcast clouds
26,Albany,42.6001,-73.9662,69.64,83,97,1.32,US,overcast clouds
27,Arraial Do Cabo,-22.9661,-42.0278,69.76,68,40,26.46,BR,scattered clouds
28,East London,-33.0153,27.9116,63.0,87,21,10.8,ZA,few clouds
29,Yellowknife,62.456,-114.3525,50.52,66,100,17.0,CA,overcast clouds
30,Arona,28.0996,-16.681,69.03,69,20,5.75,ES,few clouds
31,Yatou,37.15,122.3833,64.87,71,0,2.73,CN,clear sky
32,Tuktoyaktuk,69.4541,-133.0374,41.0,93,100,14.97,CA,mist
33,Aksu,41.1231,80.2644,72.63,20,0,2.68,CN,clear sky
34,Atar,20.5169,-13.0499,98.38,17,5,7.52,MR,clear sky
35,Faanui,-16.4833,-151.75,78.22,74,9,21.18,PF,clear sky
36,Pandharpur,17.6667,75.3333,77.85,82,100,5.48,IN,light rain
37,Grindavik,63.8424,-22.4338,52.27,93,75,2.3,IS,broken clouds
38,Bambous Virieux,-20.3428,57.7575,68.25,88,75,3.44,MU,broken clouds
39,Khash,28.2211,61.2158,73.96,18,0,0.43,IR,clear sky
40,Paka,4.6374,103.4368,75.13,94,100,0.0,MY,overcast clouds
41,Narsaq,60.9167,-46.05,50.22,85,33,2.8,GL,scattered clouds
42,Rikitea,-23.1203,-134.9692,72.77,74,6,23.94,PF,clear sky
43,Pauini,-7.7136,-66.9764,92.48,34,73,2.15,BR,broken clouds
44,Isangel,-19.55,169.2667,78.91,83,40,0.0,VU,scattered clouds
45,Punta Arenas,-53.15,-70.9167,41.11,60,100,17.27,CL,overcast clouds
46,Lagoa,39.05,-27.9833,74.7,89,99,19.8,PT,light rain
47,Buala,-8.145,159.5921,82.29,75,49,10.6,SB,light rain
48,Axim,4.8699,-2.2405,74.43,92,1,6.6,GH,clear sky
49,Avarua,-21.2078,-159.775,80.65,69,20,14.97,CK,few clouds
50,Kungurtug,50.5994,97.5228,51.03,45,1,3.2,RU,clear sky
51,Oktyabrskiy,54.4815,53.471,47.05,60,100,6.98,RU,overcast clouds
52,San Jose,37.3394,-121.895,107.58,28,0,10.36,US,clear sky
53,Zhigansk,66.7697,123.3711,43.39,80,96,5.3,RU,overcast clouds
54,Ahipara,-35.1667,173.1667,54.46,69,99,3.0,NZ,overcast clouds
55,Kahama,-3.8333,32.6,67.86,76,99,3.4,TZ,overcast clouds
56,Bredasdorp,-34.5322,20.0403,48.25,94,5,0.54,ZA,clear sky
57,Fairbanks,64.8378,-147.7164,53.6,86,75,1.01,US,broken clouds
58,Hithadhoo,-0.6,73.0833,81.84,71,99,14.9,MV,overcast clouds
59,Geraldton,-28.7667,114.6,50.41,93,84,5.75,AU,broken clouds
60,Tocopilla,-22.092,-70.1979,60.53,68,21,8.14,CL,few clouds
61,Novobiryusinskiy,56.9578,97.7076,55.63,86,94,3.8,RU,overcast clouds
62,Panubigan,7.4281,123.3466,78.37,80,84,1.52,PH,moderate rain
63,Deputatskiy,69.3,139.9,38.68,89,100,7.09,RU,light rain
64,Zhezkazgan,47.8043,67.7144,55.31,33,80,2.08,KZ,broken clouds
65,Genhe,50.7833,121.5167,43.81,91,9,2.51,CN,clear sky
66,Emba,48.8264,58.1442,51.66,44,77,5.3,KZ,broken clouds
67,Khairpur Nathan Shah,27.0936,67.7337,86.94,57,0,5.41,PK,clear sky
68,Longyearbyen,78.2186,15.6401,40.84,93,75,3.44,SJ,broken clouds
69,Hobart,-42.8794,147.3294,48.25,92,75,9.22,AU,broken clouds
70,Puerto Ayora,-0.7393,-90.3518,75.16,95,100,5.01,EC,overcast clouds
71,Victoria,22.2855,114.1577,83.32,83,99,5.01,HK,overcast clouds
72,Hervey Bay,-25.2986,152.8535,65.93,64,15,9.91,AU,few clouds
73,Carbonia,39.1672,8.5222,79.45,86,43,4.81,IT,scattered clouds
74,Kodiak,57.79,-152.4072,51.93,93,100,11.07,US,light rain
75,Inuvik,68.3499,-133.7218,45.61,93,100,3.44,CA,mist
76,Mar Del Plata,-38.0023,-57.5575,69.82,75,0,15.01,AR,clear sky
77,Louth,53.3666,-0.0044,60.67,85,75,6.4,GB,broken clouds
78,Ternate,0.8,127.4,79.21,81,92,2.66,ID,overcast clouds
79,Mugumu,-1.85,34.7,63.3,81,100,3.87,TZ,overcast clouds
80,Bethel,41.3712,-73.414,72.57,75,96,1.99,US,overcast clouds
81,Pemba,-12.974,40.5178,73.56,72,0,11.7,MZ,clear sky
82,Carutapera,-1.195,-46.02,76.77,87,100,6.89,BR,overcast clouds
83,Castro,-24.7911,-50.0119,57.9,94,14,3.27,BR,few clouds
84,Zhuanghe,39.7008,122.9911,63.5,83,0,5.39,CN,clear sky
85,Booue,-0.0921,11.9385,77.88,72,94,4.97,GA,overcast clouds
86,Bull Savanna,17.8868,-77.5902,80.94,74,53,2.42,JM,broken clouds
87,Vila Franca Do Campo,37.7167,-25.4333,73.81,93,70,8.3,PT,broken clouds
88,Luderitz,-26.6481,15.1594,58.28,77,0,9.46,NA,clear sky
89,Fortuna,40.5982,-124.1573,73.65,90,89,6.96,US,overcast clouds
90,Barcelos,41.5388,-8.6151,69.85,94,100,3.94,PT,overcast clouds
91,Esperance,-33.8667,121.9,54.34,66,40,14.32,AU,scattered clouds
92,Ibia,-19.4783,-46.5389,76.46,37,27,6.85,BR,scattered clouds
93,Georgetown,5.4112,100.3354,78.73,93,20,2.3,MY,few clouds
94,Hami,42.8,93.45,76.95,13,4,8.05,CN,clear sky
95,Bluff,-46.6,168.3333,44.8,69,91,2.51,NZ,overcast clouds
96,Sambava,-14.2667,50.1667,66.16,87,17,10.07,MG,few clouds
97,Santa Maria,-29.6842,-53.8069,74.5,43,40,4.61,BR,scattered clouds
98,Basesti,47.4833,23.15,63.93,87,45,5.7,RO,light rain
99,Labuhan,-6.8844,112.2051,76.82,88,60,7.45,ID,broken clouds
100,Natalinsk,56.4739,57.8698,39.07,89,81,4.54,RU,broken clouds
101,Baykit,61.67,96.37,47.14,99,100,5.99,RU,light rain
102,Hilo,19.7297,-155.09,88.29,80,9,5.01,US,clear sky
103,Nouadhibou,20.931,-17.0347,75.18,73,13,19.57,MR,few clouds
104,Dikson,73.5069,80.5464,37.65,87,100,19.26,RU,light rain
105,Sao Felix Do Xingu,-6.6447,-51.995,86.65,34,68,1.81,BR,broken clouds
106,San Patricio,28.017,-97.5169,91.08,45,99,4.68,US,overcast clouds
107,San Pedro,14.35,121.0167,79.83,89,20,1.14,PH,few clouds
108,Novita,4.9551,-76.6053,78.31,94,70,3.44,CO,broken clouds
109,Sorland,67.667,12.6934,49.86,71,51,10.04,NO,broken clouds
110,Flinders,-34.5833,150.8552,63.05,80,98,5.99,AU,overcast clouds
111,Port Alfred,-33.5906,26.891,61.3,89,2,10.87,ZA,clear sky
112,San Carlos De Bariloche,-41.1456,-71.3082,40.01,57,40,17.27,AR,scattered clouds
113,New Norfolk,-42.7826,147.0587,47.91,82,89,1.45,AU,overcast clouds
114,Simao,22.7886,100.9748,61.79,81,77,2.75,CN,broken clouds
115,Jiuquan,39.7432,98.5174,65.61,20,0,1.92,CN,clear sky
116,Talnakh,69.4865,88.3972,30.2,82,10,2.44,RU,clear sky
117,Umea,63.8284,20.2597,31.93,100,0,3.44,SE,clear sky
118,Katsuura,35.1333,140.3,77.02,85,47,14.27,JP,scattered clouds
119,Hamilton,39.1834,-84.5333,80.65,54,60,5.01,US,broken clouds
120,Mangai,-4.05,19.5333,74.48,81,46,1.7,CD,scattered clouds
121,Lebu,-37.6167,-73.65,47.68,61,43,11.36,CL,scattered clouds
122,Saint-Philippe,-21.3585,55.7679,69.39,74,15,5.73,RE,few clouds
123,Pevek,69.7008,170.3133,42.22,65,7,13.51,RU,clear sky
124,Sao Jose Da Coroa Grande,-8.8978,-35.1478,73.63,71,1,9.75,BR,clear sky
125,Hasaki,35.7333,140.8333,73.8,85,66,15.9,JP,broken clouds
126,Tevaitoa,-16.7833,-151.5,78.17,74,11,21.97,PF,few clouds
127,Brooks,50.5834,-111.8851,92.82,14,99,16.11,CA,overcast clouds
128,Umm Kaddadah,13.6017,26.6876,79.39,63,100,17.49,SD,light rain
129,Pabellon De Hidalgo,22.1667,-102.35,75.04,50,97,4.18,MX,overcast clouds
130,Gweta,-20.1833,25.2333,62.4,65,0,14.05,BW,clear sky
131,Dwarka,22.2394,68.9678,81.09,76,1,13.27,IN,clear sky
132,Provideniya,64.3833,-173.3,48.36,81,100,8.99,RU,overcast clouds
133,Upernavik,72.7868,-56.1549,37.83,81,98,5.08,GL,overcast clouds
134,Hermanus,-34.4187,19.2345,52.81,88,3,8.21,ZA,clear sky
135,Ribeira Grande,38.5167,-28.7,75.99,91,100,18.3,PT,light rain
136,Salinopolis,-0.6136,-47.3561,79.74,80,96,12.24,BR,overcast clouds
137,Aguimes,27.9054,-15.4461,72.23,73,75,25.01,ES,broken clouds
138,Kamiiso,41.8167,140.65,57.58,82,40,4.61,JP,scattered clouds
139,Birao,10.2849,22.7882,72.77,95,100,3.6,CF,moderate rain
140,Takoradi,4.8845,-1.7554,74.5,92,4,6.91,GH,clear sky
141,Chantada,42.6088,-7.7712,60.55,94,87,3.62,ES,overcast clouds
142,Sao Joao Da Barra,-21.6403,-41.0511,71.69,72,88,20.0,BR,overcast clouds
143,Lafiagi,8.8667,5.4167,73.56,96,87,3.47,NG,overcast clouds
144,Alofi,-19.0595,-169.9187,80.49,69,40,12.66,NU,scattered clouds
145,Avera,33.194,-82.5271,87.85,45,100,5.97,US,overcast clouds
146,Davidson,36.1501,-86.7833,85.12,54,0,15.99,US,clear sky
147,Ayotzintepec,17.6667,-96.1333,80.64,93,100,3.31,MX,overcast clouds
148,Sisimiut,66.9395,-53.6735,39.36,96,100,8.34,GL,overcast clouds
149,Kapit,2.0167,112.9333,71.69,99,67,0.43,MY,broken clouds
150,Chancay,-11.5714,-77.2672,61.63,77,50,9.15,PE,scattered clouds
151,Kapaa,22.0752,-159.319,85.1,72,16,5.99,US,few clouds
152,Tiksi,71.6872,128.8694,41.79,84,97,6.73,RU,overcast clouds
153,Peredovaya,44.1172,41.4756,45.75,71,10,4.59,RU,clear sky
154,Lakselv,70.0513,24.9718,48.02,71,100,5.75,NO,overcast clouds
155,Olinda,-8.0089,-34.8553,76.73,65,20,14.97,BR,few clouds
156,Port Macquarie,-31.4333,152.9167,55.89,78,51,7.09,AU,broken clouds
157,Bonavista,48.6499,-53.1147,56.05,66,100,16.89,CA,overcast clouds
158,Palmer,42.1584,-72.3287,70.21,75,95,5.01,US,overcast clouds
159,Ilulissat,69.2167,-51.1,35.04,97,100,3.6,GL,overcast clouds
160,Vostok,46.4856,135.8833,51.6,87,10,6.78,RU,clear sky
161,Kudahuvadhoo,2.6708,72.8944,82.17,74,100,15.95,MV,overcast clouds
162,Roma,43.2128,-75.4557,72.82,81,100,3.69,US,overcast clouds
163,Baft,29.234,56.6057,67.84,45,0,5.59,IR,clear sky
164,Acapulco,16.8634,-99.8901,84.56,70,78,8.88,MX,broken clouds
165,Bilibino,68.0546,166.4372,47.32,48,13,3.49,RU,few clouds
166,Werneck,49.9833,10.1,67.53,63,79,2.53,DE,broken clouds
167,Banda Aceh,5.5577,95.3222,78.94,78,100,13.02,ID,overcast clouds
168,Tangshan,39.6333,118.1833,62.92,49,0,3.85,CN,clear sky
169,Cockburn Town,21.4612,-71.1419,83.46,73,6,11.68,TC,clear sky
170,Tasiilaq,65.6145,-37.6368,39.06,99,100,2.37,GL,light rain
171,Oktyabrskoye,43.0645,44.7417,53.76,78,100,1.99,RU,overcast clouds
172,Kaitangata,-46.2817,169.8464,45.93,78,98,1.23,NZ,overcast clouds
173,Pundaguitan,6.3711,126.1689,81.48,74,49,2.1,PH,scattered clouds
174,Copiapo,-27.3667,-70.3333,51.49,55,37,8.1,CL,scattered clouds
175,Balkanabat,39.5108,54.3671,80.62,35,89,4.63,TM,overcast clouds
176,Sainte-Anne-Des-Monts,49.124,-66.4924,61.18,76,5,0.43,CA,clear sky
177,Khatanga,71.9667,102.5,29.41,90,96,8.66,RU,overcast clouds
178,Airai,-8.9266,125.4092,58.28,46,100,2.35,TL,overcast clouds
179,Kulhudhuffushi,6.6221,73.07,80.67,80,100,17.94,MV,overcast clouds
180,Naze,28.3667,129.4833,72.52,75,96,9.95,JP,overcast clouds
181,Hukuntsi,-24.0,21.75,67.1,37,0,17.92,BW,clear sky
182,Chabahar,25.2919,60.643,78.69,79,17,5.28,IR,few clouds
183,Husavik,66.0449,-17.3389,51.35,86,56,4.45,IS,broken clouds
184,Cidreira,-30.1811,-50.2056,61.39,89,26,13.42,BR,scattered clouds
185,Rucheng,32.3883,120.5553,75.97,1,99,3.0,CN,overcast clouds
186,Akureyri,65.6835,-18.0878,44.53,93,20,1.14,IS,few clouds
187,Abaete,-19.16,-45.4458,71.82,32,0,2.77,BR,clear sky
188,Konevo,62.1215,39.3192,36.64,98,77,5.57,RU,broken clouds
189,Gizo,-8.103,156.8419,82.26,75,38,6.6,SB,scattered clouds
190,Ibadan,7.3878,3.8964,71.65,98,96,3.89,NG,light rain
191,Vardo,70.3705,31.1107,42.78,81,100,10.36,NO,overcast clouds
192,North Bend,43.4065,-124.2243,73.92,91,0,14.97,US,clear sky
193,Hvide Sande,56.0045,8.1294,57.09,72,97,21.65,DK,overcast clouds
194,Palestina,31.9216,35.2033,69.35,88,0,3.96,PS,clear sky
195,Coihaique,-45.5752,-72.0662,38.01,81,100,3.44,CL,overcast clouds
196,Vannes,47.8333,-2.5,61.41,90,64,13.6,FR,broken clouds
197,Henties Bay,-22.116,14.2845,56.91,83,0,6.11,NA,clear sky
198,Torbay,47.6666,-52.7314,55.27,78,75,12.66,CA,broken clouds
199,Vestmanna,62.1564,-7.1664,56.32,77,100,14.97,FO,overcast clouds
200,Leningradskiy,69.3833,178.4167,43.05,55,4,8.21,RU,clear sky
201,Biltine,14.5333,20.9167,81.46,56,95,9.86,TD,overcast clouds
202,Westport,41.1415,-73.3579,72.86,67,96,7.0,US,overcast clouds
203,Mujiayingzi,42.1167,118.7833,59.76,46,0,7.87,CN,clear sky
204,Srednekolymsk,67.45,153.6833,56.61,43,100,10.0,RU,overcast clouds
205,Havre,49.5833,0.3333,62.37,88,100,11.5,FR,overcast clouds
206,Huangmei,30.1924,116.025,76.57,46,100,5.75,CN,overcast clouds
207,Kasongo-Lunda,-6.4667,16.8167,76.39,76,51,2.46,CD,broken clouds
208,Auburn,47.3073,-122.2284,81.73,47,97,5.99,US,overcast clouds
209,Bonthe,7.5264,-12.505,76.62,87,100,10.47,SL,light rain
210,Anori,-3.7728,-61.6442,86.63,48,54,2.37,BR,broken clouds
211,Stepnoye,51.4,46.8667,49.19,54,96,6.29,RU,overcast clouds
212,Krasnoselkup,65.7,82.4667,37.08,95,100,17.13,RU,overcast clouds
213,George,-33.963,22.4617,54.23,65,0,2.44,ZA,clear sky
214,Malindi,-3.2175,40.1191,74.25,83,50,16.4,KE,scattered clouds
215,Quepos,9.4236,-84.1652,79.47,87,84,2.1,CR,broken clouds
216,Puerto Escondido,15.85,-97.0667,84.56,68,56,5.59,MX,broken clouds
217,Cherskiy,68.75,161.3,54.39,42,60,13.96,RU,broken clouds
218,Alba,52.0324,23.1165,49.1,50,90,5.08,PL,overcast clouds
219,Batagay-Alyta,67.8006,130.4114,41.14,66,100,8.08,RU,overcast clouds
220,Esso,55.9333,158.7,52.23,90,97,8.08,RU,overcast clouds
221,Kavaratti,10.5669,72.642,79.47,82,100,24.43,IN,overcast clouds
222,Mahebourg,-20.4081,57.7,68.29,88,75,3.44,MU,broken clouds
223,Sitka,57.0531,-135.33,57.88,74,90,4.81,US,overcast clouds
224,Broome,42.2506,-75.833,70.2,87,100,5.75,US,mist
225,Mount Isa,-20.7333,139.5,67.77,73,100,4.61,AU,overcast clouds
226,Bubaque,11.2833,-15.8333,80.74,82,100,6.24,GW,moderate rain
227,Grootfontein,-19.5667,18.1167,65.77,26,0,3.44,NA,clear sky
228,Belyy Yar,53.6039,91.3903,64.29,54,0,2.24,RU,clear sky
229,Vrangel,42.7297,133.0839,62.83,85,0,3.44,RU,clear sky
230,Saldanha,-33.0117,17.9442,54.77,89,0,16.49,ZA,clear sky
231,Humaita,-7.5061,-63.0208,90.61,36,98,3.62,BR,overcast clouds
232,Lazaro Cardenas,17.9583,-102.2,84.65,67,43,9.55,MX,scattered clouds
233,Poum,-20.2333,164.0167,71.67,78,60,9.06,NC,broken clouds
234,Margate,51.3813,1.3862,60.91,90,100,5.01,GB,heavy intensity rain
235,Bilma,18.6853,12.9164,92.79,27,14,0.63,NE,few clouds
236,Havre-Saint-Pierre,50.2334,-63.5986,58.41,77,58,7.56,CA,broken clouds
237,Ligayan,4.6533,119.4706,82.47,71,100,1.74,PH,overcast clouds
238,Port Elizabeth,-33.918,25.5701,56.32,98,1,1.12,ZA,clear sky
239,Carnarvon,-24.8667,113.6333,62.17,49,98,10.96,AU,overcast clouds
240,Maniitsoq,65.4167,-52.9,40.42,81,100,5.84,GL,overcast clouds
241,Haines Junction,60.7522,-137.5108,60.55,36,41,7.31,CA,scattered clouds
242,Sao Filipe,14.8961,-24.4956,78.71,88,74,15.61,CV,broken clouds
243,Chernyshevskiy,63.0128,112.4714,32.65,96,12,3.33,RU,few clouds
244,Portland,45.5234,-122.6762,87.82,43,26,7.0,US,scattered clouds
245,Kailua,21.4022,-157.7394,87.03,63,27,5.99,US,scattered clouds
246,Lincoln,40.8,-96.667,92.14,44,0,3.0,US,clear sky
247,Lompoc,34.6391,-120.4579,102.78,55,4,5.01,US,clear sky
248,Verkhnyaya Toyma,62.2349,44.9985,34.32,96,39,5.32,RU,scattered clouds
249,Roebourne,-20.7833,117.1333,64.94,57,2,5.99,AU,clear sky
250,Valparaiso,-33.0393,-71.6273,57.0,91,100,11.5,CL,overcast clouds
251,Videbaek,56.0876,8.6285,56.71,68,97,16.33,DK,overcast clouds
252,Puerto Narino,-3.7703,-70.3831,83.39,65,82,2.35,CO,broken clouds
253,Limbe,4.0242,9.2149,76.42,88,45,6.42,CM,scattered clouds
254,Ariquemes,-9.9133,-63.0408,92.34,29,32,4.0,BR,scattered clouds
255,Viedma,-40.8135,-62.9967,48.22,76,100,17.98,AR,moderate rain
256,Daugai,54.3667,24.3333,46.63,86,19,3.44,LT,few clouds
257,Mandera,3.9366,41.867,77.58,55,88,21.63,KE,overcast clouds
258,Touros,-5.1989,-35.4608,75.38,78,0,17.65,BR,clear sky
259,Brookhaven,31.5791,-90.4407,83.8,72,43,5.1,US,scattered clouds
260,Makhalino,53.0854,46.2211,43.48,74,100,6.58,RU,overcast clouds
261,Chegdomyn,51.1167,133.0167,50.14,88,100,9.15,RU,overcast clouds
262,Wattegama,6.7989,81.4808,76.17,76,99,6.08,LK,overcast clouds
263,Necochea,-38.5473,-58.7368,62.13,61,88,10.45,AR,overcast clouds
264,Pechenga,69.5259,31.1703,41.72,76,100,6.62,RU,overcast clouds
265,High Prairie,55.4334,-116.4858,69.06,24,17,18.97,CA,few clouds
266,Zeya,53.75,127.2667,44.69,74,0,5.86,RU,clear sky
267,Fort Nelson,58.8053,-122.7002,57.47,51,95,10.49,CA,overcast clouds
268,Nadvoitsy,63.8667,34.3167,40.15,91,98,8.55,RU,overcast clouds
269,Khvastovichi,53.4694,35.0941,48.22,80,100,4.52,RU,light rain
270,Qui Nhon,13.7667,109.2333,76.23,91,100,4.76,VN,overcast clouds
271,Zemio,5.0314,25.1361,68.32,99,100,3.22,CF,overcast clouds
272,Los Llanos De Aridane,28.6585,-17.9182,71.35,92,0,11.5,ES,clear sky
273,Belaya Gora,68.5333,146.4167,53.19,50,100,13.82,RU,overcast clouds
274,Mount Darwin,-16.7725,31.5838,57.4,65,0,4.21,ZW,clear sky
275,Umrala,21.8333,71.8167,83.89,66,65,7.7,IN,broken clouds
276,Nyagan,62.1406,65.3936,39.6,97,93,3.44,RU,overcast clouds
277,Sol-Iletsk,51.1631,54.9918,49.23,55,97,6.04,RU,overcast clouds
278,Morondava,-20.2833,44.2833,71.26,67,0,11.36,MG,clear sky
279,San Quintin,30.4833,-115.95,82.83,63,5,11.48,MX,clear sky
280,Anekal,12.7,77.7,66.92,96,100,8.75,IN,overcast clouds
281,Vila Nova De Milfontes,37.7238,-8.7828,66.25,92,31,4.5,PT,scattered clouds
282,Juba,4.8517,31.5825,72.3,82,23,3.69,SS,few clouds
283,Barrow,71.2906,-156.7887,48.22,66,0,8.05,US,clear sky
284,Panaba,21.2833,-88.2667,86.13,64,69,11.86,MX,broken clouds
285,Udachnyy,66.4167,112.4,36.05,95,78,6.15,RU,broken clouds
286,Abnub,27.2696,31.1511,82.92,43,0,10.45,EG,clear sky
287,Bandarbeyla,9.4942,50.8122,76.93,75,6,26.75,SO,clear sky
288,Cap-Aux-Meules,47.3821,-61.8597,63.64,53,5,1.03,CA,clear sky
289,Puerto Del Rosario,28.5004,-13.8627,73.15,78,20,13.8,ES,few clouds
290,Rawson,-43.3002,-65.1023,44.82,58,97,15.59,AR,overcast clouds
291,Odienne,9.51,-7.5692,71.82,95,100,3.94,CI,overcast clouds
292,Capinopolis,-18.6819,-49.5697,84.45,23,10,5.5,BR,clear sky
293,Mama,58.3106,112.8986,41.77,92,88,5.06,RU,overcast clouds
294,Stromness,58.965,-3.296,58.96,93,41,13.0,GB,scattered clouds
295,Vao,-22.6667,167.4833,69.26,71,14,14.58,NC,few clouds
296,Bengkulu,-3.8004,102.2655,73.4,89,100,2.93,ID,overcast clouds
297,Bereznik,62.8551,42.7072,39.96,92,95,5.95,RU,overcast clouds
298,Nanortalik,60.1432,-45.2371,43.93,92,26,4.09,GL,scattered clouds
299,Asfi,32.2994,-9.2372,69.94,78,18,20.42,MA,few clouds
300,Mayo,38.8876,-76.5119,72.03,93,100,5.99,US,overcast clouds
301,Hay River,60.8156,-115.7999,52.72,58,100,10.8,CA,overcast clouds
302,Dali,25.7,100.1833,58.42,79,87,2.28,CN,overcast clouds
303,Numan,9.4667,12.0333,75.24,88,64,5.14,NG,broken clouds
304,Kahului,20.8947,-156.47,86.97,76,15,11.01,US,few clouds
305,Chuy,-33.6971,-53.4616,58.15,93,11,6.17,UY,few clouds
306,Saskylakh,71.9167,114.0833,36.73,84,98,7.27,RU,overcast clouds
307,Mandalgovi,45.7625,106.2708,60.33,33,4,5.99,MN,clear sky
308,Codrington,-38.2667,141.9667,55.42,95,100,18.28,AU,light rain
309,Oranjemund,-28.55,16.4333,55.24,89,0,5.93,NA,clear sky
310,Chokurdakh,70.6333,147.9167,53.02,54,100,10.45,RU,overcast clouds
311,Guerrero Negro,27.9769,-114.0611,83.97,60,89,24.83,MX,overcast clouds
312,Shipitsyno,61.2806,46.5208,39.6,97,100,8.68,RU,light rain
313,Boguchany,58.3814,97.4531,51.78,98,100,4.38,RU,overcast clouds
314,Guatire,10.4762,-66.5427,83.19,78,89,2.8,VE,overcast clouds
315,Karratha,-20.7377,116.8463,64.76,62,1,5.08,AU,clear sky
316,Rorvik,64.8621,11.2373,50.11,81,0,4.61,NO,clear sky
317,Najran,17.4924,44.1277,80.26,21,5,2.59,SA,clear sky
318,Kimberley,-28.7323,24.7623,59.83,16,0,5.95,ZA,clear sky
319,Aklavik,68.2191,-135.0107,46.0,59,100,3.85,CA,overcast clouds
320,Tete,-16.1564,33.5867,75.78,47,63,10.42,MZ,broken clouds
321,Saint George,37.1041,-113.5841,106.79,16,1,8.99,US,clear sky
322,Opuwo,-18.0607,13.84,71.62,24,0,3.89,NA,clear sky
323,Gariaband,20.635,82.0614,74.98,94,100,2.77,IN,overcast clouds
324,Cabo San Lucas,22.8909,-109.9124,81.05,85,100,11.01,MX,overcast clouds
325,Kushima,31.4583,131.2333,74.12,73,87,4.68,JP,overcast clouds
326,Churapcha,62.0025,132.4325,42.58,85,100,13.76,RU,light rain
327,Rio Gallegos,-51.6226,-69.2181,44.65,45,0,13.8,AR,clear sky
328,Belmonte,-15.8631,-38.8828,70.54,81,96,12.5,BR,overcast clouds
329,Olutanga,7.3106,122.8464,81.46,72,100,0.96,PH,heavy intensity rain
330,Kichmengskiy Gorodok,59.9816,45.7854,41.95,98,100,5.44,RU,overcast clouds
331,Waipawa,-41.4122,175.5153,48.94,73,95,1.66,NZ,overcast clouds
332,Puerto Madryn,-42.7692,-65.0385,45.75,58,99,14.09,AR,overcast clouds
333,Ambunti,-4.2365,142.8448,75.29,96,71,1.45,PG,broken clouds
334,Santa Isabel,-23.3156,-46.2214,71.31,70,45,2.71,BR,scattered clouds
335,Itarema,-2.9248,-39.9167,77.77,78,3,17.56,BR,clear sky
336,Batticaloa,7.7102,81.6924,80.08,74,100,6.51,LK,overcast clouds
337,Dambulla,7.86,80.6517,74.32,86,100,12.53,LK,overcast clouds
338,Evensk,61.95,159.2333,46.44,72,100,5.77,RU,overcast clouds
339,Caconda,-13.7333,15.0667,63.88,45,0,3.42,AO,clear sky
340,Bintulu,3.1667,113.0333,74.55,94,77,3.76,MY,broken clouds
341,Bathsheba,13.2167,-59.5167,83.3,69,93,7.27,BB,overcast clouds
342,Thinadhoo,0.5333,72.9333,83.25,65,100,17.76,MV,overcast clouds
343,Salalah,17.0151,54.0924,76.35,86,100,4.92,OM,overcast clouds
344,Camocim,-2.9022,-40.8411,79.09,71,5,18.28,BR,clear sky
345,Shamary,57.3434,58.2199,41.88,89,90,4.56,RU,overcast clouds
346,Ayan,56.45,138.1667,49.46,72,87,27.04,RU,overcast clouds
347,Fukue,32.6881,128.8419,76.48,68,92,22.03,JP,overcast clouds
348,Korla,41.7597,86.1469,76.57,19,0,5.14,CN,clear sky
349,Skjervoy,70.0311,20.9714,46.4,74,100,5.39,NO,overcast clouds
350,Guayape,14.7167,-86.8333,74.53,85,88,2.39,HN,overcast clouds
351,Mankato,44.1636,-93.9994,85.95,26,3,8.63,US,clear sky
352,Whitehorse,60.7161,-135.0538,62.1,41,25,0.78,CA,scattered clouds
353,Ostrovnoy,68.0531,39.5131,42.8,84,100,15.43,RU,light rain
354,Centerville,39.6284,-84.1594,78.6,58,20,4.0,US,few clouds
355,Samarai,-10.6167,150.6667,80.58,80,22,9.13,PG,few clouds
356,Carupano,10.6678,-63.2585,77.32,92,94,9.46,VE,overcast clouds
357,Mtambile,-5.3833,39.7,73.44,83,0,9.46,TZ,clear sky
358,Nsanje,-16.92,35.262,69.6,68,11,5.01,MW,few clouds
359,Deseronto,44.2001,-77.0494,70.84,70,94,1.43,CA,light rain
360,Rocha,-34.4833,-54.3333,60.98,85,0,5.73,UY,clear sky
361,San Policarpo,12.1791,125.5072,80.4,83,100,3.89,PH,overcast clouds
362,Lively,46.4334,-81.1498,79.02,36,0,4.38,CA,clear sky
363,Fort Abbas,29.1925,72.8536,92.14,38,39,3.33,PK,scattered clouds
364,Wewak,-3.5534,143.6268,81.95,77,88,5.23,PG,overcast clouds
365,Kolpny,52.2282,37.0368,48.72,52,99,9.06,RU,overcast clouds
366,Kidal,18.4411,1.4078,94.87,15,24,8.66,ML,few clouds
367,Ponta Do Sol,32.6667,-17.1,75.7,80,7,1.59,PT,clear sky
368,Gornopravdinsk,60.05,69.9,43.39,95,100,6.15,RU,overcast clouds
369,Kayerkan,69.3497,87.7602,30.27,79,11,1.68,RU,few clouds
370,Kwidzyn,53.7249,18.9311,56.52,72,100,8.43,PL,overcast clouds
371,Omagh,54.6,-7.3,55.04,96,84,6.69,GB,broken clouds
372,La Libertad,-2.2333,-80.9,69.46,83,100,12.66,EC,overcast clouds
373,Charters Towers,-20.1,146.2667,66.16,79,17,12.53,AU,few clouds
374,Isiro,2.7739,27.616,66.15,99,64,1.32,CD,broken clouds
375,Arman,59.7,150.1667,53.02,96,100,14.74,RU,heavy intensity rain
376,Natal,-5.795,-35.2094,74.05,83,0,5.75,BR,clear sky
377,Maumere,-8.6199,122.2111,76.66,80,69,4.92,ID,broken clouds
378,Stepnyak,52.8339,70.7803,44.69,72,5,13.78,KZ,clear sky
379,Polyarnyy,69.1989,33.4478,41.99,74,100,9.93,RU,overcast clouds
380,Pangnirtung,66.1451,-65.7125,49.28,60,80,8.75,CA,broken clouds
381,Gornyy,55.1153,83.9059,47.7,67,58,20.04,RU,broken clouds
382,Constitucion,-35.3333,-72.4167,48.45,82,92,5.35,CL,overcast clouds
383,El Alto,-4.2714,-81.2147,65.86,72,57,23.09,PE,broken clouds
384,Green River,41.5286,-109.4662,95.18,15,3,1.99,US,clear sky
385,Kangaatsiaq,68.3065,-53.4641,38.98,89,100,7.47,GL,overcast clouds
386,Qaqortoq,60.7167,-46.0333,43.65,91,28,2.89,GL,scattered clouds
387,Batagay,67.6333,134.6333,44.01,79,100,8.52,RU,light rain
388,Sur,22.5667,59.5289,79.48,70,0,11.74,OM,clear sky
389,Acarau,-2.8856,-40.12,77.94,77,3,18.39,BR,clear sky
390,Kankon,15.0167,74.0167,76.8,91,99,3.89,IN,overcast clouds
391,Tsaratanana,-16.7833,47.65,63.07,74,0,8.95,MG,clear sky
392,Ugoofaaru,5.6667,73.0,80.83,81,100,16.44,MV,overcast clouds
393,Baghdad,33.3406,44.4009,84.11,32,0,6.91,IQ,clear sky
394,Beringovskiy,63.05,179.3167,44.28,65,6,6.69,RU,clear sky
395,Tansen,27.8673,83.5467,64.67,91,78,3.53,NP,broken clouds
396,Saint-Pierre,-21.3393,55.4781,69.48,64,100,4.61,RE,overcast clouds
397,Kavieng,-2.5744,150.7967,83.44,73,60,12.55,PG,broken clouds
398,Mineros,-17.1167,-63.2333,92.19,18,0,11.81,BO,clear sky
399,Barra Do Garcas,-15.89,-52.2567,86.45,22,16,5.97,BR,few clouds
400,Pisco,-13.7,-76.2167,62.65,77,100,10.36,PE,overcast clouds
401,West Wendover,40.7391,-114.0733,96.01,11,0,9.22,US,clear sky
402,Ginir,7.1333,40.7,61.66,75,33,9.17,ET,scattered clouds
403,Hambantota,6.1241,81.1185,75.54,94,40,4.61,LK,scattered clouds
404,Ishigaki,24.3448,124.1572,80.82,66,86,17.34,JP,overcast clouds
405,Leshukonskoye,64.8989,45.7622,36.84,96,86,4.76,RU,overcast clouds
406,Mnogovershinnyy,53.9353,139.9242,45.23,81,100,21.34,RU,overcast clouds
407,Saint-Georges,12.0564,-61.7485,81.32,80,99,9.57,GD,overcast clouds
408,Nichinan,31.6,131.3667,71.28,73,92,7.81,JP,overcast clouds
409,Tondano,1.3038,124.9112,64.49,90,100,2.46,ID,overcast clouds
410,Ketchikan,55.3422,-131.6461,61.27,72,100,6.91,US,overcast clouds
411,Ilek,51.5271,53.3831,49.23,60,100,6.6,RU,overcast clouds
412,Maceio,-9.6658,-35.7353,74.64,73,20,4.61,BR,few clouds
413,Sinnamary,5.3833,-52.95,80.17,81,73,11.16,GF,broken clouds
414,Mount Gambier,-37.8333,140.7667,55.31,94,100,17.27,AU,overcast clouds
415,Maningrida,-12.0667,134.2667,73.04,87,48,2.13,AU,scattered clouds
416,Sakakah,29.9697,40.2064,86.83,25,0,10.07,SA,clear sky
417,Pervomayskoye,43.919,46.7102,57.16,90,100,4.25,RU,overcast clouds
418,Prince Rupert,54.3161,-130.3201,54.64,94,100,9.22,CA,light rain
419,Roald,62.5833,6.1333,55.76,93,25,5.75,NO,scattered clouds
420,Bograd,54.2344,90.8328,66.04,45,100,22.15,RU,overcast clouds
421,Taloqan,36.7361,69.5345,74.07,17,0,3.4,AF,clear sky
422,Beya,53.0533,90.9139,65.07,47,92,8.3,RU,overcast clouds
423,Adrar,20.5022,-10.0711,99.25,13,4,8.28,MR,clear sky
424,Igarka,67.4667,86.5833,31.71,83,100,10.71,RU,overcast clouds
425,Clayton,33.5335,-84.3666,87.48,64,40,8.05,US,scattered clouds
426,Tambopata,-12.7333,-69.1833,87.69,45,0,3.44,PE,clear sky
427,Pulsano,40.3821,17.3564,76.82,77,2,8.68,IT,clear sky
428,Monrovia,6.3005,-10.7969,75.92,87,100,9.04,LR,light rain
429,Yanam,16.7333,82.2167,74.14,96,100,3.13,IN,overcast clouds
430,Ulladulla,-35.35,150.4667,55.51,86,99,7.45,AU,overcast clouds
431,Klyuchi,52.2667,79.1667,50.9,59,83,8.84,RU,broken clouds
432,Port Lincoln,-34.7333,135.8667,52.56,91,78,16.69,AU,broken clouds
433,Port Hardy,50.6996,-127.4199,60.98,72,75,12.66,CA,light intensity shower rain
434,Zorgo,12.2489,-0.6158,78.12,80,93,4.61,BF,moderate rain
435,Port Alberni,49.2413,-124.8028,78.89,37,0,8.99,CA,clear sky
436,Nioro,13.35,-15.75,77.77,91,36,5.91,GM,light rain
437,Iqaluit,63.7506,-68.5145,41.7,86,99,11.99,CA,overcast clouds
438,Kang,-23.6752,22.7876,63.81,45,0,13.62,BW,clear sky
439,Safita,34.8205,36.1153,73.81,78,20,2.26,SY,few clouds
440,Jalu,29.0331,21.5482,77.86,39,1,14.07,LY,clear sky
441,Yar-Sale,66.8333,70.8333,31.87,83,75,8.46,RU,broken clouds
442,Lorengau,-2.0226,147.2712,82.35,74,61,2.93,PG,broken clouds
443,Fengkou,30.0833,113.2667,80.78,46,100,8.08,CN,overcast clouds
444,Oxapampa,-10.5775,-75.4017,68.79,63,87,3.22,PE,overcast clouds
445,Owen Sound,44.5672,-80.9435,75.88,56,0,5.01,CA,clear sky
446,Manhattan,40.7834,-73.9662,73.62,76,96,11.99,US,overcast clouds
447,Vozhega,60.4725,40.2213,36.84,96,88,6.82,RU,overcast clouds
448,Cortes,41.9395,-1.4396,73.45,35,98,3.04,ES,overcast clouds
449,Palembang,-2.9167,104.7458,77.09,94,20,0.0,ID,mist
450,Vila,42.0304,-8.1588,54.48,93,99,4.0,PT,overcast clouds
451,Port Hedland,-20.3167,118.5667,57.25,82,5,8.05,AU,clear sky
452,Helong,42.5397,128.9972,55.94,80,0,5.99,CN,clear sky
453,Esna,25.2934,32.554,84.94,33,0,8.77,EG,clear sky
454,Vanino,49.0869,140.2543,61.9,61,52,11.14,RU,broken clouds
455,Pasighat,28.0667,95.3333,76.57,78,100,3.18,IN,heavy intensity rain
456,Grand Gaube,-20.0064,57.6608,70.2,76,45,11.65,MU,scattered clouds
457,Kaeo,-35.1,173.7833,61.32,72,10,2.82,NZ,clear sky
458,Yeniseysk,58.4497,92.1703,53.96,92,83,8.68,RU,broken clouds
459,Consett,54.854,-1.8316,56.23,90,100,3.09,GB,overcast clouds
460,Lima,-12.0432,-77.0282,63.9,77,100,11.5,PE,overcast clouds
461,Kieta,-6.2167,155.6333,81.34,79,31,5.17,PG,scattered clouds
462,Kiunga,-6.1219,141.2906,74.98,98,65,2.06,PG,broken clouds
463,Nizwa,22.9333,57.5333,76.55,70,0,3.67,OM,clear sky
464,Taltal,-25.4,-70.4833,57.16,73,56,4.27,CL,broken clouds
465,Vanavara,60.34,102.2797,41.97,96,100,8.28,RU,light rain
466,Helena,46.5927,-112.0361,99.81,14,0,20.0,US,clear sky
467,Honiara,-9.4333,159.95,83.07,73,43,8.03,SB,scattered clouds
468,Huanan,46.2167,130.5167,56.7,82,10,4.85,CN,clear sky
469,Amahai,-3.3333,128.9167,76.44,87,95,2.62,ID,overcast clouds
470,Vredendal,-31.6683,18.5012,58.17,58,0,4.68,ZA,clear sky
471,Trofors,65.5333,13.4063,42.67,81,90,3.96,NO,overcast clouds
472,Dondo,-19.6094,34.7431,66.45,89,0,4.27,MZ,clear sky
473,Gimli,50.6336,-96.9907,80.82,29,4,11.39,CA,clear sky
474,Bumba,2.1833,22.4667,74.35,84,93,1.32,CD,light rain
475,Knurow,50.2197,18.6507,65.08,73,86,6.2,PL,overcast clouds
476,Caceres,39.522,-6.3748,68.85,46,99,5.48,ES,overcast clouds
477,Williston,48.147,-103.618,97.54,10,0,14.41,US,clear sky
478,Naryan-Mar,67.6713,53.087,36.1,92,93,6.24,RU,overcast clouds
479,San Cristobal,7.7669,-72.225,82.58,68,40,5.7,VE,scattered clouds
480,Pingyi,35.5006,117.6308,64.18,72,43,2.46,CN,scattered clouds
481,Riachao Do Dantas,-11.0689,-37.725,66.33,90,12,4.29,BR,few clouds
482,Mehamn,71.0357,27.8492,48.15,87,100,13.8,NO,overcast clouds
483,Chilca,-12.5211,-76.7372,60.89,79,55,7.11,PE,broken clouds
484,Christchurch,-43.5333,172.6333,52.95,75,100,1.01,NZ,overcast clouds
485,Nyurba,63.2842,118.3319,35.47,98,16,5.03,RU,few clouds
486,Tahe,52.3333,124.7333,45.0,86,23,5.32,CN,few clouds
487,Yumen,40.2833,97.2,66.72,14,0,3.8,CN,clear sky
488,Ascension,30.2169,-90.9001,91.02,83,60,0.0,US,broken clouds
489,La Serena,-29.9078,-71.2542,53.11,76,75,8.05,CL,broken clouds
490,Penzance,50.1186,-5.5371,61.48,90,95,22.62,GB,overcast clouds
491,Fare,-16.7,-151.0167,78.08,74,3,20.98,PF,clear sky
492,Filadelfia,39.9523,-75.1638,71.15,89,99,3.0,US,overcast clouds
493,Alhama De Murcia,37.851,-1.4251,86.32,33,97,2.95,ES,overcast clouds
494,Mokhsogollokh,61.4681,128.9203,44.01,75,100,14.97,RU,overcast clouds
495,Xuddur,4.1213,43.8894,70.81,70,44,19.8,SO,scattered clouds
496,Dickinson,29.4608,-95.0513,93.16,57,75,8.05,US,broken clouds
497,Wloclawek,52.6482,19.0678,53.53,34,99,8.46,PL,overcast clouds
498,Barranca,-10.75,-77.7667,62.04,75,57,11.36,PE,broken clouds
499,Kintampo,8.0563,-1.7306,71.87,90,10,3.94,GH,clear sky
500,New Glasgow,45.5834,-62.6486,66.78,63,12,4.85,CA,few clouds
501,Sayyan,15.1718,44.3244,68.05,26,85,9.13,YE,overcast clouds
502,Bowen,-20.0167,148.2333,71.1,69,10,11.95,AU,clear sky
503,Bitung,1.4451,125.1824,72.45,84,100,7.07,ID,overcast clouds
504,Vila Velha,-20.3297,-40.2925,71.55,72,75,6.91,BR,broken clouds
505,Mormugao,15.4,73.8,76.26,94,75,2.3,IN,broken clouds
506,Crystal Beach,42.8699,-79.0583,74.01,82,59,6.85,CA,broken clouds
507,Antalaha,-14.9003,50.2788,65.89,82,34,7.34,MG,scattered clouds
508,Lata,40.1629,-8.3327,67.82,88,98,0.81,PT,overcast clouds
509,Asau,46.4333,26.4,52.72,91,14,4.81,RO,few clouds
510,Westerly,41.3776,-71.8273,71.22,78,100,8.01,US,overcast clouds
511,Brae,60.3964,-1.353,56.37,93,100,16.98,GB,overcast clouds
512,Calvinia,-31.4707,19.776,59.79,16,0,2.1,ZA,clear sky
513,Bara,10.3744,10.7288,73.76,88,76,6.11,NG,broken clouds
514,Manokwari,-0.8667,134.0833,78.87,68,98,2.19,ID,overcast clouds
515,Muros,42.7762,-9.0603,66.09,87,93,3.87,ES,overcast clouds
516,Oistins,13.0667,-59.5333,82.33,71,86,7.67,BB,overcast clouds
517,Aksarka,66.5606,67.7975,30.16,88,54,6.33,RU,broken clouds
518,Souillac,-20.5167,57.5167,70.18,78,75,6.91,MU,broken clouds
519,Siavonga,-16.5382,28.7088,72.32,48,0,5.73,ZM,clear sky
520,Tromso,69.6496,18.957,46.42,81,75,3.44,NO,broken clouds
521,Dese,11.1333,39.6333,54.36,82,45,4.92,ET,scattered clouds
522,Saint Anthony,45.0205,-93.218,89.35,51,0,8.05,US,clear sky
523,Ust-Uda,54.1742,103.0304,53.29,90,99,4.16,RU,overcast clouds
524,Aykhal,66.0,111.5,31.64,92,22,8.48,RU,few clouds
525,Kununurra,-15.7667,128.7333,67.98,88,2,0.0,AU,clear sky
526,Sibu,2.3,111.8167,71.91,99,31,1.52,MY,scattered clouds
527,Chkalovskoye,44.8392,133.0436,59.09,85,1,9.24,RU,clear sky
528,Goderich,43.7501,-81.7165,72.91,58,0,15.5,CA,clear sky
529,Bagh,22.3667,74.7667,79.59,80,100,3.51,IN,overcast clouds
530,Banamba,13.55,-7.45,72.7,78,99,5.86,ML,light rain
531,Mahajanga,-15.7167,46.3167,69.82,73,20,4.61,MG,few clouds
532,Novoasbest,57.7422,60.2877,37.18,97,61,5.44,RU,broken clouds
533,Koupela,12.1794,-0.3517,78.24,79,89,6.76,BF,light rain
534,Vyshneve,50.3891,30.3705,48.09,73,1,0.51,UA,clear sky
535,Ixtapa,20.7,-105.2,92.23,62,100,4.61,MX,overcast clouds
536,Mecca,21.4267,39.8261,86.7,45,2,5.7,SA,clear sky
537,Havoysund,70.9963,24.6622,48.43,88,100,22.7,NO,light rain
538,Te Anau,-45.4167,167.7167,37.44,94,85,0.96,NZ,overcast clouds
539,Berlevag,70.8578,29.0864,48.2,81,100,13.8,NO,light intensity drizzle
540,Komatipoort,-25.4332,31.9548,62.06,82,0,1.45,ZA,clear sky
541,Morro Bay,35.3658,-120.8499,112.39,39,14,5.99,US,few clouds
542,Okakarara,-20.5833,17.4333,65.1,22,1,6.33,NA,clear sky
543,Clyde River,70.4692,-68.5914,36.19,93,100,17.2,CA,overcast clouds
544,Horadiz,39.4488,47.3353,64.65,77,100,0.69,AZ,overcast clouds
545,Aasiaat,68.7098,-52.8699,36.48,92,100,5.59,GL,overcast clouds
546,Cerritos,33.8583,-118.0648,109.89,49,75,10.36,US,smoke
547,Muzhi,65.3667,64.6667,36.72,91,100,5.61,RU,overcast clouds
548,Tautira,-17.7333,-149.15,76.53,78,17,21.61,PF,light rain
549,Biggar,55.6167,-3.5167,59.02,94,100,4.88,GB,overcast clouds
550,Lucea,18.451,-78.1736,88.86,75,13,5.08,JM,few clouds
551,Richards Bay,-28.783,32.0377,65.55,72,0,13.38,ZA,clear sky
552,Musoma,-1.5,33.8,69.94,74,95,9.06,TZ,light rain
553,Juazeiro,-9.4117,-40.4986,84.38,34,0,13.8,BR,clear sky
554,Gamba,-2.65,10.0,73.33,89,100,8.88,GA,light rain
555,Ovalle,-30.5983,-71.2003,58.95,48,1,7.0,CL,clear sky
556,Kruisfontein,-34.0033,24.7314,54.54,83,0,4.68,ZA,clear sky
557,Alappuzha,9.49,76.3264,77.0,89,100,10.96,IN,light rain
558,Hobyo,5.3505,48.5268,75.43,86,48,24.49,SO,scattered clouds
559,Jackson,42.4165,-122.8345,100.74,25,0,3.44,US,haze
560,Vaitape,-16.5167,-151.75,78.24,74,9,21.12,PF,clear sky
561,Hayden,47.766,-116.7866,88.36,24,0,13.8,US,clear sky
562,Abu Samrah,35.3029,37.1841,75.87,67,0,6.73,SY,clear sky
563,Grand Haven,43.0631,-86.2284,81.37,65,40,8.05,US,scattered clouds
564,Santa Cruz,-17.8,-63.1667,84.25,37,0,20.71,BO,smoke
565,Chimbote,-9.0853,-78.5783,63.88,74,55,11.18,PE,broken clouds
566,Honningsvag,70.9821,25.9704,47.95,81,100,14.97,NO,moderate rain
567,Cayenne,4.9333,-52.3333,82.44,74,91,3.44,GF,overcast clouds
568,Anamur,36.0751,32.8369,77.04,35,0,8.66,TR,clear sky
569,Orasac,44.6289,16.0711,63.39,86,23,4.88,BA,few clouds
570,Kasongo,-4.45,26.6667,75.42,68,71,5.53,CD,broken clouds
571,Tessalit,20.1986,1.0114,95.09,13,5,12.33,ML,clear sky
572,Marystown,47.1666,-55.1483,60.24,56,48,9.78,CA,scattered clouds
573,Hofn,64.2539,-15.2082,52.16,90,100,4.32,IS,overcast clouds
574,Changji,44.0167,87.3167,81.39,17,0,13.42,CN,clear sky
575,Weligama,5.9667,80.4167,76.87,89,100,11.97,LK,overcast clouds
576,Magdalena,14.1999,121.429,79.36,96,28,2.28,PH,scattered clouds
577,Trelew,-43.249,-65.3051,44.85,54,99,14.63,AR,overcast clouds
578,Tagusao,9.1924,117.8141,78.69,84,25,2.71,PH,scattered clouds
579,Sudbury,46.49,-80.99,79.05,36,0,1.99,CA,clear sky
580,Luoyang,34.6836,112.4536,70.48,51,99,1.39,CN,overcast clouds
581,Gusinoye Ozero,51.1144,106.2614,55.54,69,46,1.05,RU,scattered clouds
582,Hualmay,-11.0964,-77.6139,63.27,73,44,11.01,PE,scattered clouds
583,Falam,22.9167,93.6833,61.66,93,99,0.76,MM,overcast clouds
584,Wagar,16.1525,36.2032,89.6,50,100,18.16,SD,overcast clouds
585,Paamiut,61.994,-49.6678,40.62,82,99,13.02,GL,overcast clouds
586,Gushikawa,26.3544,127.8686,79.83,82,0,6.91,JP,clear sky
587,Aitape,-3.1374,142.3475,80.29,80,74,3.42,PG,broken clouds
588,Curvelo,-18.7564,-44.4308,70.84,31,1,4.27,BR,clear sky
589,Gat,31.61,34.7642,77.81,100,0,4.32,IL,clear sky
590,Dunedin,-45.8742,170.5036,51.8,64,100,0.69,NZ,overcast clouds
591,Soe,-9.8607,124.284,61.14,74,68,3.42,ID,broken clouds
592,Drabiv,49.963,32.1529,47.61,63,4,6.15,UA,clear sky
593,The Valley,18.217,-63.0578,86.09,79,40,5.75,AI,scattered clouds
594,Vanimo,-2.6741,141.3028,79.63,80,89,3.69,PG,overcast clouds
595,Umm Lajj,25.0213,37.2685,85.46,52,0,9.06,SA,clear sky
596,Sistranda,63.7256,8.834,49.96,70,27,3.69,NO,scattered clouds
597,Eirunepe,-6.6603,-69.8736,90.32,39,52,3.24,BR,broken clouds
598,Iwanai,42.9744,140.5089,62.8,76,0,4.16,JP,clear sky
599,Libenge,3.65,18.6333,72.95,92,92,3.02,CD,overcast clouds
600,Kahta,37.7855,38.6237,72.77,25,0,6.33,TR,clear sky
601,Dingle,10.9995,122.6711,75.85,93,61,4.56,PH,broken clouds
602,Barinas,8.6226,-70.2075,84.15,61,48,6.2,VE,scattered clouds
603,Phillaur,31.0292,75.7842,76.66,79,0,0.25,IN,clear sky
604,Tjaereborg,55.4646,8.5797,61.12,90,75,10.36,DK,broken clouds
605,Zhuhai,22.2769,113.5678,83.86,83,40,5.75,CN,scattered clouds
606,Portoferraio,42.8115,10.3146,81.97,84,5,10.6,IT,clear sky
607,Leh,34.1667,77.5833,52.0,78,98,0.83,IN,overcast clouds
608,Kampong Thum,12.7111,104.8887,74.5,98,100,6.26,KH,overcast clouds
609,Beroroha,-21.6667,45.1667,67.98,49,0,4.47,MG,clear sky
610,Maridi,4.9158,29.4742,66.85,82,9,4.05,SS,clear sky
611,Savannakhet,16.566,104.751,72.84,95,100,4.12,LA,overcast clouds
612,Port Keats,-14.25,129.55,75.11,88,33,2.75,AU,scattered clouds
613,Tiznit,29.5833,-9.5,73.44,54,0,1.14,MA,clear sky
614,Pacifica,37.6138,-122.4869,105.06,66,20,8.05,US,haze
615,Ouargaye,11.5033,0.0572,77.63,82,100,6.98,BF,light rain
616,Caravelas,-17.7125,-39.2481,69.33,71,100,7.92,BR,overcast clouds
617,Turukhansk,65.8167,87.9833,39.11,81,100,13.53,RU,overcast clouds
618,Barreirinha,-2.7933,-57.07,88.79,42,55,4.41,BR,broken clouds
619,Maputo,-25.9653,32.5892,65.55,79,0,6.82,MZ,clear sky
620,Camana,-16.6228,-72.7111,61.21,78,18,5.23,PE,few clouds
621,Ancud,-41.8697,-73.8203,43.23,85,98,10.0,CL,overcast clouds
622,Manglaur,29.8,77.8667,78.75,73,0,4.47,IN,clear sky
623,Plettenberg Bay,-34.0527,23.3716,55.8,59,0,2.71,ZA,clear sky
624,Arrifes,37.7667,-25.7,71.85,94,40,11.5,PT,scattered clouds
625,Baoying,33.2292,119.3092,67.84,86,100,6.22,CN,overcast clouds
626,Bolivar,37.6145,-93.4105,83.95,50,0,8.46,US,clear sky
627,Chipinge,-20.1883,32.6236,55.54,88,42,5.75,ZW,scattered clouds
628,Alice Springs,-23.7,133.8833,57.22,26,0,8.05,AU,clear sky
629,Presidencia Roque Saenz Pena,-26.7852,-60.4388,78.66,28,30,7.34,AR,scattered clouds
630,Da Nang,16.0678,108.2208,76.98,94,75,1.14,VN,broken clouds
631,Priladozhskiy,59.85,31.4833,46.53,1,52,6.53,RU,broken clouds
632,Chapais,49.7834,-74.8492,71.38,54,100,3.47,CA,overcast clouds
633,Penarroya-Pueblonuevo,38.3,-5.2667,70.45,45,79,4.7,ES,broken clouds
634,Bobrov,51.0961,40.0333,46.15,52,98,7.61,RU,overcast clouds
635,Shelburne,44.0787,-80.2041,75.24,49,3,11.18,CA,clear sky
636,Sembe,1.6481,14.5806,71.98,96,53,2.84,CG,broken clouds
637,Ilyich,40.8464,68.5067,65.34,35,0,8.3,KZ,clear sky
638,Trairi,-3.2778,-39.2689,77.85,78,1,13.8,BR,clear sky
639,Champerico,14.3,-91.9167,88.34,72,20,8.86,GT,few clouds
640,Padang,-0.9492,100.3543,76.69,76,100,4.81,ID,overcast clouds
641,Payo,-3.7508,103.6372,70.75,97,95,1.77,ID,overcast clouds
642,Tuatapere,-46.1333,167.6833,44.69,81,55,3.69,NZ,broken clouds
643,Skala,50.2305,19.8536,61.09,62,0,6.91,PL,clear sky
644,Awbari,26.5921,12.7805,82.96,28,0,6.67,LY,clear sky
645,Kosonsoy,41.2561,71.5508,66.76,21,0,6.46,UZ,clear sky
646,La Rinconada,37.4873,-5.9826,78.98,38,0,3.44,ES,clear sky
647,Barvinkove,48.9097,37.0205,48.94,52,10,6.26,UA,clear sky
648,San Juan,-31.5375,-68.5364,80.64,4,0,30.42,AR,clear sky
649,Olot,42.181,2.4901,74.26,60,100,3.0,ES,overcast clouds
650,Reinosa,42.9996,-4.138,56.46,86,67,2.26,ES,broken clouds
651,Port Blair,11.6667,92.75,75.24,94,100,1.14,IN,moderate rain
652,Patitirion,39.15,23.8667,68.38,54,0,13.4,GR,clear sky
653,Xining,36.6167,101.7667,47.23,71,31,2.44,CN,scattered clouds
654,Herat,34.5,62.0,72.64,19,0,8.86,AF,clear sky
655,Kankan,10.3854,-9.3057,71.85,95,95,4.99,GN,light rain
656,Shambu,9.5667,37.1,50.94,89,88,1.01,ET,overcast clouds
657,Solnechnogorsk,56.1833,36.9833,46.24,98,89,5.88,RU,overcast clouds
658,Wuwei,37.9281,102.6414,64.18,21,49,6.44,CN,scattered clouds
659,Comodoro Rivadavia,-45.8667,-67.5,37.26,81,100,4.61,AR,light rain
660,Gulu,2.7746,32.299,65.23,91,100,3.0,UG,overcast clouds
661,Meadow Lake,34.8014,-106.5436,95.32,17,0,2.08,US,clear sky
662,Laguna,38.421,-121.4238,110.34,15,0,10.36,US,clear sky
663,Tura,25.5198,90.2201,75.61,88,100,3.27,IN,overcast clouds
664,Yining,29.0361,114.5636,73.81,63,100,2.28,CN,overcast clouds
665,Rudbar,30.15,62.6,83.08,12,0,4.43,AF,clear sky
666,Shumskiy,54.8318,99.1328,60.03,63,83,5.79,RU,broken clouds
667,Wanaka,-44.7,169.15,41.14,78,95,2.01,NZ,overcast clouds
668,Adeje,28.1227,-16.726,73.22,71,20,4.61,ES,few clouds
669,Mindif,10.3976,14.4363,77.49,78,99,5.23,CM,overcast clouds
670,Teknaf,20.8624,92.3058,79.92,88,99,3.53,BD,light rain
671,Tambacounda,13.7539,-13.7586,79.43,91,49,6.67,SN,scattered clouds
672,Makakilo City,21.3469,-158.0858,86.32,51,75,13.8,US,broken clouds
673,Mulchen,-37.7167,-72.2333,49.86,94,100,3.18,CL,overcast clouds
674,Mishelevka,52.8575,103.1719,52.29,86,79,5.77,RU,broken clouds
675,Hirara,24.8,125.2833,77.27,83,20,14.97,JP,few clouds
676,Mogadishu,2.0371,45.3438,75.45,85,17,16.08,SO,few clouds
677,Markova,48.6758,24.4138,53.29,89,23,4.03,UA,few clouds
678,Wanning,18.8003,110.3967,79.14,89,100,5.03,CN,heavy intensity rain
679,Katima Mulilo,-17.5,24.2667,66.43,37,0,5.79,NA,clear sky
680,Batouri,4.4333,14.3667,68.14,98,100,1.63,CM,moderate rain
681,Humen,22.819,113.6731,83.12,78,93,5.97,CN,overcast clouds
682,Popondetta,-8.7537,148.2534,82.35,55,12,0.81,PG,few clouds
683,Pangkalanbuun,-2.6833,111.6167,73.29,98,92,2.64,ID,moderate rain
684,Smithers,54.7804,-127.1743,57.52,77,75,5.75,CA,broken clouds
685,Liverpool,53.4106,-2.9779,60.15,92,20,11.5,GB,few clouds
686,Kupang,-10.1667,123.5833,73.44,81,21,6.42,ID,few clouds
687,Bandiagara,14.3501,-3.6104,78.33,66,16,5.68,ML,few clouds
688,Namatanai,-3.6667,152.4333,82.17,74,30,5.82,PG,scattered clouds
689,Huangchuan,32.1272,115.0394,73.92,65,100,6.91,CN,overcast clouds
690,Tyumentsevo,53.3224,81.498,50.43,59,92,13.2,RU,overcast clouds
691,Kawalu,-7.3817,108.2082,71.56,97,100,0.78,ID,overcast clouds
692,Kajaani,64.2273,27.7285,37.45,93,75,3.44,FI,broken clouds
693,La Palma,33.8464,-118.0467,109.92,47,75,10.36,US,smoke
694,Moba,33.2288,105.0179,53.62,88,86,1.9,CN,overcast clouds
695,Peniche,39.3558,-9.3811,70.11,86,87,7.07,PT,overcast clouds
696,Pathein,16.7833,94.7333,76.21,94,98,3.0,MM,overcast clouds
697,Bilyayivka,46.4832,30.2168,62.94,69,95,11.59,UA,overcast clouds
698,Lavrentiya,65.5833,-171.0,43.68,88,100,8.21,RU,light rain
699,Kichera,55.9375,110.0997,43.63,88,96,0.69,RU,overcast clouds
700,Tres Arroyos,-38.3739,-60.2798,60.19,45,100,8.19,AR,overcast clouds
701,Cochrane,51.1834,-114.4687,79.9,10,27,20.78,CA,scattered clouds
702,Tena,-0.9833,-77.8167,78.96,67,93,1.68,EC,overcast clouds
703,Bayan,46.0833,127.4,59.88,77,30,12.64,CN,scattered clouds
704,Pombas,17.1503,-25.0201,78.58,83,52,10.74,CV,broken clouds
705,Talakan,50.3167,130.3667,49.1,90,8,4.85,RU,clear sky
706,Anchorage,61.2181,-149.9003,58.86,81,75,5.99,US,broken clouds
707,Contai,21.7786,87.7536,82.47,83,100,5.61,IN,light rain
708,Manthani,18.65,79.6667,77.9,91,100,3.47,IN,overcast clouds
709,Griffith,41.5284,-87.4237,81.12,61,0,8.05,US,clear sky
710,Port-Gentil,-0.7193,8.7815,76.96,83,75,12.66,GA,broken clouds
711,Naspur,18.8333,79.45,78.37,90,100,3.31,IN,overcast clouds
712,Samana,19.2056,-69.3369,84.16,75,65,3.27,DO,broken clouds
713,Uyuni,-20.4597,-66.825,48.29,12,3,20.15,BO,clear sky
714,Sept-Iles,50.2001,-66.3821,61.32,75,20,5.75,CA,few clouds
715,Velyka Pysarivka,50.4259,35.485,46.92,53,40,6.69,UA,scattered clouds
716,North Platte,41.1239,-100.7654,96.69,20,0,9.22,US,clear sky
717,Peace River,56.2501,-117.286,68.31,30,75,24.16,CA,broken clouds
718,Riverton,40.5219,-111.9391,104.14,14,0,10.0,US,clear sky
719,Hastinapur,29.1667,78.0167,80.69,64,0,6.17,IN,clear sky
720,Caramay,10.1815,119.236,78.55,80,52,2.37,PH,broken clouds
721,Ust-Donetskiy,47.6419,40.8718,50.45,46,0,2.93,RU,clear sky
722,Samagaltay,50.6022,95.0047,58.78,27,9,4.12,RU,clear sky
723,Seoul,37.5683,126.9778,63.84,70,0,2.24,KR,clear sky
724,Port Shepstone,-30.7414,30.455,65.77,84,41,19.06,ZA,scattered clouds
725,Linkoping,58.4109,15.6216,48.58,91,44,3.44,SE,scattered clouds
726,Nantucket,41.2835,-70.0995,71.71,75,0,12.66,US,clear sky
727,Harper,4.375,-7.7169,75.04,88,19,5.82,LR,few clouds
728,Nabire,-3.3667,135.4833,77.0,86,100,2.53,ID,overcast clouds
729,Nortelandia,-14.4547,-56.8028,90.52,23,8,4.12,BR,clear sky
