,City,Country,Max Temp,Current Description,Lat,Lng,Hotel Name
0,Jamestown,US,75.06,broken clouds,42.097,-79.2353,Hampton Inn & Suites Jamestown
8,Butaritari,KI,81.63,broken clouds,3.0707,172.7902,Isles Sunset Lodge
14,Kieta,PG,77.63,overcast clouds,-6.2167,155.6333,Uruna Bay Retreat
19,Kavieng,PG,81.7,broken clouds,-2.5744,150.7967,Nusa Island Retreat
20,Jalu,LY,83.46,clear sky,29.0331,21.5482,صاحبة الفخامة
21,Gizo,SB,81.23,scattered clouds,-8.103,156.8419,Imagination Island
25,Ormara,PK,80.67,clear sky,25.2088,64.6357,Kenara Colony House for Rent
26,Marang,MY,78.69,overcast clouds,5.2056,103.2059,DBarakah Homestay
35,Ko Samui,TH,82.15,light rain,9.5357,99.9357,The Passage
40,Kapaa,US,79.11,clear sky,22.0752,-159.319,Sheraton Kauai Coconut Beach Resort
52,Lorengau,PG,80.38,broken clouds,-2.0226,147.2712,Lorengau Harbourside Hotel
59,Ponta Do Sol,PT,80.01,few clouds,32.6667,-17.1,Hotel do Campo
60,Alghero,IT,80.69,scattered clouds,40.5589,8.3181,Smy Carlos V Alghero
61,Jackson,US,77.14,clear sky,42.4165,-122.8345,Agate Village Apartments
62,Atuona,PF,75.99,light rain,-9.8,-139.0333,Hôtel Hiva Oa Hanakee Lodge
64,Ocala,US,77.94,moderate rain,29.1872,-82.1401,Shangri La Motel
73,Gummidipundi,IN,82.4,overcast clouds,13.4,80.15,Le Raj Courtyard
81,Maceio,BR,80.04,scattered clouds,-9.6658,-35.7353,Hotel Ponta Verde Maceió
84,Arraial Do Cabo,BR,75.06,clear sky,-22.9661,-42.0278,Pousada Porto Praia
89,Shingu,JP,76.78,moderate rain,33.7333,135.9833,Shingu UI Hotel
92,Guerrero Negro,MX,81.23,overcast clouds,27.9769,-114.0611,"Casa Laguna, Bed & Breakfast"
95,Touros,BR,81.28,clear sky,-5.1989,-35.4608,INN NEW HORIZON
96,Marsh Harbour,BS,84.25,few clouds,26.5412,-77.0636,Abaco Beach Resort
100,Komsomolskiy,UZ,75.92,clear sky,40.4272,71.7189,Ikathouse
103,The Valley,AI,83.07,overcast clouds,18.217,-63.0578,CeBlue Villas & Beach Resort
106,Sarh,TD,75.02,light rain,9.1429,18.3923,Domicile 1sur le goudron
110,Belmonte,BR,75.22,overcast clouds,-15.8631,-38.8828,Pousada Monte Carmelo O Pão
114,Bengkulu,ID,76.28,overcast clouds,-3.8004,102.2655,Grage Hotel Bengkulu
117,Hilo,US,80.62,haze,19.7297,-155.09,Hilo Hawaiian Hotel
118,Eydhafushi,MV,80.64,overcast clouds,5.1033,73.0708,Soneva Fushi
119,Bafq,IR,85.32,clear sky,31.6128,55.4107,Alamdar Hotel
121,Zorritos,PE,77.29,few clouds,-3.6805,-80.6782,Hotel Pinamar
124,Omboue,GA,75.87,broken clouds,-1.5746,9.2618,Hotel Olako
128,Guane,CU,86.65,broken clouds,22.2025,-84.0875,base de Campismo LosPortales de Guane
129,Chateaubelair,VC,83.43,broken clouds,13.2833,-61.25,Richmond Vale Diving & Hiking Center
131,Bethel,US,79.57,broken clouds,41.3712,-73.414,Courtyard by Marriott Danbury
134,Georgetown,MY,79.9,few clouds,5.4112,100.3354,Cititel Penang
138,Oranjestad,AW,83.98,overcast clouds,12.524,-70.027,Divi Village Golf & Beach Resort
139,Darnah,LY,76.12,clear sky,32.767,22.6367,فندق الفردوس
141,Pascagoula,US,88.52,broken clouds,30.3658,-88.5561,Regency Inn
144,Praia Da Vitoria,PT,79.75,scattered clouds,38.7333,-27.0667,Hotel Branco I
147,Namatanai,PG,79.12,overcast clouds,-3.6667,152.4333,Seagulls Inn Namatani
148,Malanje,AO,83.07,scattered clouds,-9.5402,16.341,Hotel Ginga
151,Big Rapids,US,82.09,clear sky,43.6981,-85.4837,"Holiday Inn Big Rapids, an IHG Hotel"
154,Castro,BR,76.01,scattered clouds,-24.7911,-50.0119,CHACARA BAILLY
155,Santiago Del Estero,AR,80.91,broken clouds,-27.7951,-64.2615,Apartamentos Castelli 90
156,Nusaybin,TR,78.39,clear sky,37.0778,41.2178,Aydinlar Hotel
160,Vila Velha,BR,78.75,few clouds,-20.3297,-40.2925,Hotel Vitória Palace
162,Port-Gentil,GA,76.96,scattered clouds,-0.7193,8.7815,Fengshui Residence
165,Bakel,SN,88.32,overcast clouds,14.905,-12.4568,Ablaye Diallo Bakel
166,Praxedis Guerrero,MX,85.46,overcast clouds,31.3667,-106.0167,Congregación placitas de Otero
168,Makakilo City,US,79.12,clear sky,21.3469,-158.0858,Marriott's Ko Olina Beach Club
170,Sai Buri,TH,78.17,overcast clouds,6.7013,101.6168,สวนป่ารีสอร์ท
174,Ventanas,EC,85.68,overcast clouds,-1.45,-79.4667,Hotel Kalabi INN
175,Roanoke Rapids,US,77.34,overcast clouds,36.4615,-77.6542,Hampton Inn Roanoke Rapids
177,Maragogi,BR,78.08,few clouds,-9.0122,-35.2225,Salinas do Maragogi All Inclusive Resort
178,Sumenep,ID,79.65,broken clouds,-7.0167,113.8667,OYO 3271 Homestay Pandian
184,Asyut,EG,88.7,clear sky,27.181,31.1837,فندق ميس إيجيبت Miss Egypt Hotel
188,Faanui,PF,78.6,few clouds,-16.4833,-151.75,Bora-Bora Pearl Beach Resort & Spa
190,Bintulu,MY,75.22,moderate rain,3.1667,113.0333,900 Boutique INN
192,Poggibonsi,IT,79.83,overcast clouds,43.4724,11.1456,Hotel Villa San Lucchese
193,Hithadhoo,MV,81.57,broken clouds,-0.6,73.0833,Scoop Guest House
205,Padang,ID,76.46,overcast clouds,-0.9492,100.3543,Mercure Padang
206,Silver City,US,81.68,clear sky,32.7701,-108.2803,Copper Manor Motel
211,Houma,US,84.0,clear sky,29.5958,-90.7195,Courtyard by Marriott Houma
215,Tuy Hoa,VN,77.29,broken clouds,13.0833,109.3,CenDeluxe Hotel Tuy Hoa
218,Sinnamary,GF,84.87,broken clouds,5.3833,-52.95,ALETHEIA Appartement Sinnamary
221,Katsuura,JP,75.61,overcast clouds,35.1333,140.3,Katsuura Hotel Mikazuki
222,Huescar,ES,81.12,broken clouds,37.811,-2.5412,Hotel El Maño
224,Marzuq,YE,82.24,broken clouds,14.4,46.4667,حيد القفلة
225,Bud,US,79.68,clear sky,39.447,-86.1758,Ted McQuinn Trust
228,Ixtapa,MX,86.23,overcast clouds,20.7,-105.2,hotel la terminal
229,Bandarbeyla,SO,77.29,few clouds,9.4942,50.8122,JABIR HOTEL
232,Zharkent,KZ,78.26,broken clouds,44.1628,80.0,гостиница Satti
235,Belem,BR,84.24,broken clouds,-1.4558,-48.5044,Mercure Belém Boulevard
240,Salalah,OM,77.09,broken clouds,17.0151,54.0924,"HAMDAN PLAZA HOTEL SALALAH, an HTG Hotel"
242,Nouadhibou,MR,78.06,clear sky,20.931,-17.0347,El Medina
245,Carutapera,BR,85.01,few clouds,-1.195,-46.02,Lidera
247,Piacabucu,BR,77.11,scattered clouds,-10.4056,-36.4344,Piaçabuçu News
248,Indramayu,ID,77.14,moderate rain,-6.3264,108.32,Grand Trisula Hotel
250,Matara,LK,76.84,broken clouds,5.9485,80.5353,Amaloh Boutique Resort
255,Tual,ID,80.67,scattered clouds,-5.6667,132.75,Grand Vilia Hotel
258,Chenghai,CN,77.29,scattered clouds,23.4632,116.768,Guangdong Hotel
259,Coahuayana,MX,89.53,broken clouds,18.7333,-103.6833,El rranchito michuacan de ocampos
260,Sabang,ID,82.17,overcast clouds,5.8933,95.3214,Hotel Citra
273,Sibolga,ID,75.81,broken clouds,1.7427,98.7792,Hotel Syariah CN Darussalam
274,Jimeta,NG,76.17,overcast clouds,9.2833,12.4667,Yola International Hotel
275,Lalmohan,BD,84.83,overcast clouds,22.3384,90.7419,Arifur Rahman Miraj
277,Gillette,US,82.11,few clouds,44.2911,-105.5022,National 9 Inn - Gillette WY
280,Iralaya,HN,85.89,scattered clouds,15.0,-83.2333,Iglesia morava renovada
281,Pitimbu,BR,82.99,broken clouds,-7.4706,-34.8086,Reserva do Abiaí
289,Sao Filipe,CV,78.8,scattered clouds,14.8961,-24.4956,Hotel Xaguate
292,Clinton,US,83.44,few clouds,42.587,-82.9199,River's Edge
293,Howard Springs,AU,76.91,few clouds,-12.497,131.047,buffalo beach hostel
295,Daru,PG,77.99,overcast clouds,-9.0763,143.2092,Daru Lodge
299,Bernal,PE,80.35,clear sky,-5.45,-80.75,Plaza de Armas Bellavista de La Unión
303,Ozieri,IT,75.92,overcast clouds,40.586,9.0012,B&B Santu Larentu
304,Los Alamos,US,79.97,clear sky,35.8881,-106.307,"Holiday Inn Express & Suites Los Alamos Entrada Park, an IHG Hotel"
306,Miri,MY,76.15,overcast clouds,4.4148,114.0089,"Mega Hotel, Miri"
307,Alofi,NU,76.12,scattered clouds,-19.0595,-169.9187,Taloa Heights
308,Hambantota,LK,78.46,overcast clouds,6.1241,81.1185,Bungalow 63
312,Upleta,IN,83.8,light rain,21.7333,70.2833,Salman odiya homes
313,Victoria,HK,84.25,broken clouds,22.2855,114.1577,Mini Central
314,Kahului,US,82.42,scattered clouds,20.8947,-156.47,Maui Seaside Hotel
315,Saint Anthony,US,86.94,clear sky,45.0205,-93.218,Holiday Inn Express Roseville-St. Paul
318,Ballesteros,PH,80.73,overcast clouds,18.4126,121.5152,De Leon Hotel
325,Champerico,GT,84.67,broken clouds,14.3,-91.9167,"Hotel y restaurante ""El Diamante"""
335,Eyl,SO,77.41,broken clouds,7.9803,49.8164,Amiin Hotel
338,Dunmore Town,BS,83.41,clear sky,25.5,-76.65,Coral Sands Hotel
341,Ardakan,IR,87.06,clear sky,32.31,54.0175,Ardakan Hotel
345,Karpathos,GR,75.16,few clouds,35.507,27.2132,Alex
347,Guimbal,PH,79.54,overcast clouds,10.6633,122.3228,Shamrock Beach Resort
349,Kavaratti,IN,79.41,overcast clouds,10.5669,72.642,Green leaf
351,Wad Madani,SD,87.75,light rain,14.4012,33.5199,فندق يوغسلافيا
355,Itamarandiba,BR,79.74,scattered clouds,-17.8572,-42.8589,Aricanduva Hotel
356,Cianorte,BR,87.22,clear sky,-23.6633,-52.605,Hotel Cianorte Diamond
357,Ribeira Grande,PT,79.2,few clouds,38.5167,-28.7,Quinta da Meia Eira
359,Havelock,US,80.98,overcast clouds,34.8791,-76.9013,Sherwood Motel
360,Wanning,CN,79.68,overcast clouds,18.8003,110.3967,Paradise Hotel
365,Cody,US,81.64,clear sky,44.5263,-109.0565,"Holiday Inn Cody-at Buffalo Bill Village, an IHG Hotel"
366,Panama City,PA,85.44,thunderstorm,8.9936,-79.5197,Trump International Hotel & Tower Panama
367,Kigoma,TZ,76.66,few clouds,-4.8769,29.6267,MJI Mwema Lodge
372,Carpenedolo,IT,75.25,scattered clouds,45.3645,10.4313,Bellavista
374,Davila,PH,78.78,overcast clouds,18.4726,120.5763,Blue Ridge Beach Resort
376,Banjar,ID,75.81,scattered clouds,-8.19,114.9675,The Hamsa Resort
380,Cabo San Lucas,MX,85.05,mist,22.8909,-109.9124,Hotel Tesoro Los Cabos
381,Wewak,PG,79.0,broken clouds,-3.5534,143.6268,In Wewak Boutique Hotel
385,Kroya,ID,76.15,light rain,-7.6331,109.2461,Devina kost & Homestay Kroya
389,Les Cayes,HT,88.16,clear sky,18.2,-73.75,Villa Orphee
390,Liku,ID,75.25,overcast clouds,-0.7275,119.8922,Kost annisa
400,Piura,PE,82.58,clear sky,-5.2,-80.6333,Casa Andina Premium Piura
402,Corinto,GR,75.88,clear sky,37.9407,22.9573,Ephira Hotel
407,Muli,MV,81.59,overcast clouds,2.9167,73.5667,Medhufushi Island Resort
413,Partur,IN,77.99,overcast clouds,19.6,76.2167,Prasanna Deshpande
417,Sao Francisco Do Sul,BR,76.19,broken clouds,-26.2433,-48.6381,Hotel Kontiki
420,Meulaboh,ID,75.11,overcast clouds,4.1363,96.1285,Kost Pria
422,Susanville,US,87.8,clear sky,40.4163,-120.653,Comfort Inn & Suites
428,Monrovia,LR,80.37,scattered clouds,6.3005,-10.7969,Sunset Inn
435,Kirakira,SB,78.28,scattered clouds,-10.4544,161.9205,SanBiz Lodge
436,Sao Jose Da Coroa Grande,BR,78.21,scattered clouds,-8.8978,-35.1478,Crôa Mares Hotel
437,Hamilton,US,79.0,broken clouds,39.1834,-84.5333,Six Acres Bed & Breakfast
439,Shelburne,CA,80.24,clear sky,44.0787,-80.2041,The Retreat at the Farm
441,Lexington,US,78.94,broken clouds,37.9887,-84.4777,DoubleTree Suites by Hilton Hotel Lexington
442,Mount Pleasant,US,86.05,scattered clouds,32.7941,-79.8626,Best Western Patriots Point
445,Frei Paulo,BR,75.99,overcast clouds,-10.5494,-37.5344,Restaurante e Pousada Nossa Senhora De Fátima
447,Jacqueville,CI,75.7,scattered clouds,5.2052,-4.4146,Hotel Le Martin Pecheur
448,Palmer,US,78.15,few clouds,42.1584,-72.3287,Wedgewood Motel
450,Kundla,IN,84.88,light rain,21.3333,71.3,Gaytri Society
452,Caravelas,BR,75.58,overcast clouds,-17.7125,-39.2481,Pousada dos Navegantes
453,Diffa,NE,83.48,light rain,13.3154,12.6113,ProDAF/Diffa
457,Pipar,IN,88.9,clear sky,26.3856,73.5378,Aadam Mansion
459,Najran,SA,86.65,clear sky,17.4924,44.1277,محمد هادي ال فطيح
460,Buala,SB,79.65,broken clouds,-8.145,159.5921,Maringe Lagoon Lodge
461,Sao Joao Da Barra,BR,78.89,clear sky,-21.6403,-41.0511,Pousada Porto De Canoas
466,Zhenhai,CN,75.88,clear sky,24.2582,118.0905,In Zhijian Guesthouse
468,Imbituba,BR,77.86,broken clouds,-28.24,-48.6703,Praia Hotel Imbituba
473,Naze,JP,77.92,scattered clouds,28.3667,129.4833,Shishime Hotel
474,Bayonet Point,US,75.2,light rain,28.3267,-82.6834,"Holiday Inn Express & Suites Port Richey, an IHG Hotel"
477,Awbari,LY,88.59,clear sky,26.5921,12.7805,فندق أوباري
478,Mamallapuram,IN,82.45,overcast clouds,12.6264,80.1722,Radisson Blu Resort Temple Bay Mamallapuram
480,Parsons,US,87.67,clear sky,37.3403,-95.2611,Express Inn Parsons
484,Kutum,SD,83.39,scattered clouds,14.2,24.6667,Dibbo areaمنطقة دبو
487,Lastoursville,GA,75.99,overcast clouds,-0.8143,12.7287,Auberge Bon Coin 02
492,San Andres,CO,87.82,scattered clouds,12.5847,-81.7006,Hotel Arena Blanca
494,Cocobeach,GA,77.34,light rain,1.0002,9.5823,Hotel Esperance
496,Ambon,ID,77.14,scattered clouds,-3.6954,128.1814,Swiss-Belhotel Ambon
497,Fomboni,KM,76.39,scattered clouds,-12.28,43.7425,Auberge les abou
498,Warangal,IN,76.55,overcast clouds,18.0,79.5833,Capital O 66968 Haveli The Landmark
499,Vila Franca Do Campo,PT,77.41,light rain,37.7167,-25.4333,Pestana Bahia Praia
504,Tazmalt,DZ,86.79,scattered clouds,36.3868,4.3989,Hôtel Numédia
510,Taos,US,84.54,clear sky,36.4072,-105.5731,El Monte Sagrado
512,Itapema,BR,81.84,overcast clouds,-27.0903,-48.6114,Solis Praia Hotel Itapema
515,Port Blair,IN,77.04,moderate rain,11.6667,92.75,"Welcomhotel By ITC Hotels, Bay Island, Port Blair"
517,Tsumeb,,81.16,clear sky,-19.2333,17.7167,TeaterHuis Guest House
519,South Venice,US,87.78,haze,27.0531,-82.4243,"Island Sun Inn & Suites - Venice, Florida Historic Downtown & Beach Getaway"
520,Cayenne,GF,86.04,broken clouds,4.9333,-52.3333,Hôtel Le Dronmi
521,Cockburn Town,TC,83.68,clear sky,21.4612,-71.1419,Osprey Beach Hotel
525,Dingle,PH,76.44,overcast clouds,10.9995,122.6711,SEGAYA PROPERTY
530,Payson,US,89.4,clear sky,40.0444,-111.7321,Quality Inn Payson I-15
533,Mao,ES,81.16,few clouds,39.8885,4.2658,ARTIEM Capri
537,Ojinaga,MX,87.57,clear sky,29.5667,-104.4167,Suites Las Palmas
541,Kismayo,SO,75.63,scattered clouds,-0.3582,42.5454,Agan-Hotel
549,Sur,OM,81.73,clear sky,22.5667,59.5289,Sur Plaza Hotel
553,Broome,US,76.86,overcast clouds,42.2506,-75.833,Chenango Valley State Park
554,Vengurla,IN,77.13,light rain,15.8667,73.6333,Golven Resort
559,Mizdah,LY,87.57,few clouds,31.4451,12.9801,محمدالمبروك الاريقط
560,Manokwari,ID,78.04,broken clouds,-0.8667,134.0833,Swiss Belhotel Manokwari
562,Carai,BR,76.44,broken clouds,-17.1889,-41.6947,Pousada Caraíba
567,Bathsheba,BB,88.41,few clouds,13.2167,-59.5167,Atlantis Hotel
568,Puerto Del Rosario,ES,76.75,few clouds,28.5004,-13.8627,Hotel JM Puerto del Rosario
569,Samarai,PG,80.28,broken clouds,-10.6167,150.6667,Nuli Sapi
570,Roma,US,80.96,clear sky,43.2128,-75.4557,Wingate By Wyndham Rome
572,Waddan,LY,86.58,clear sky,29.1614,16.139,محل الشريف محمد العايب
575,Acapulco,MX,84.02,broken clouds,16.8634,-99.8901,HS Hotsson Smart Acapulco
578,Arroio Grande,BR,77.34,broken clouds,-32.2375,-53.0869,Motel Bela Vista
580,Totness,SR,86.52,few clouds,5.8833,-56.3167,STAATS LOGEERGEBOUW TOTNESS
583,Taylorville,US,80.87,scattered clouds,39.5489,-89.2945,Economy Inn
584,San Cristobal,VE,86.18,broken clouds,7.7669,-72.225,Pirineos
588,Ashland,US,78.22,clear sky,40.8167,-82.2665,SureStay
590,Nizwa,OM,83.64,scattered clouds,22.9333,57.5333,Orient Apartments
595,Shache,CN,75.81,clear sky,38.4167,77.2406,Delong Hotel
596,Takoradi,GH,76.48,scattered clouds,4.8845,-1.7554,Raybow International Hotel
602,Dera Bugti,PK,88.02,clear sky,29.0307,69.151,Nawab Bugti House
603,Carbondale,US,82.06,scattered clouds,37.7273,-89.2168,Best Western Saluki Inn
604,Rehoboth,,75.88,clear sky,-23.3167,17.0833,Noble Luminous Accommodation
607,Moron,AR,75.94,light rain,-34.6534,-58.6198,Hotel Morón
610,Wichita,US,88.56,clear sky,37.6922,-97.3375,Courtyard by Marriott Wichita at Old Town
617,Kongolo,CD,86.2,broken clouds,-5.3833,27.0,GUEST HOUSE OASIS
619,Morgan City,US,84.0,broken clouds,29.6994,-91.2068,Hampton Inn & Suites Morgan City
620,Korla,CN,79.79,clear sky,41.7597,86.1469,Gulisitan Hotel
622,Filadelfia,US,80.56,broken clouds,39.9523,-75.1638,"The Ritz-Carlton, Philadelphia"
623,Bubaque,GW,80.69,overcast clouds,11.2833,-15.8333,"Casa Dora, Bubaque"
626,Opuwo,,81.16,clear sky,-18.0607,13.84,ABBA Guesthouse
631,Manadhoo,MV,80.69,overcast clouds,5.7667,73.3833,Bon Abri maldives
632,Sakaiminato,JP,76.98,broken clouds,35.55,133.2333,Italian pasley
641,Mogadishu,SO,76.24,broken clouds,2.0371,45.3438,Hotel Juba
642,Kanniyakumari,IN,79.0,overcast clouds,8.0833,77.5667,Sparsa Kanyakumari
644,Palafrugell,ES,77.36,overcast clouds,41.9174,3.1631,Hotel La Torre
645,Ca Mau,VN,77.11,overcast clouds,9.1769,105.15,Mường Thanh Luxury Cà Mau Hotel
648,Tautira,PF,76.98,light rain,-17.7333,-149.15,Pension Oaoa
651,Lucapa,AO,81.07,scattered clouds,-8.4192,20.7447,Lírio Mendes
655,Urumqi,CN,83.35,clear sky,43.801,87.6005,Hua Ling Grand Hotel Urumqi
656,Westport,US,79.92,clear sky,41.1415,-73.3579,The Westport Inn
660,Altar,MX,87.42,overcast clouds,30.7,-111.8167,Hotel Maria Elena
661,Beruwala,LK,77.92,light rain,6.4788,79.9828,The Palms Hotel
662,Lazaro Cardenas,MX,84.24,overcast clouds,17.9583,-102.2,HOTEL QUINTA ANTIGUA
666,Gujrat,PK,87.76,clear sky,32.5728,74.079,Aziz Butt
672,Ibra,OM,81.75,clear sky,22.6906,58.5334,مزرعة راحة النفوس المنزفة
673,Romitan,UZ,75.15,clear sky,39.9343,64.3814,Hotel Temur
676,Basmat,IN,76.71,overcast clouds,19.3167,77.1667,Lakshmi-Narayan
677,Mayo,US,80.55,few clouds,38.8876,-76.5119,Resorts Resource Group International
678,Bontang,ID,80.17,light rain,0.1333,117.5,KOPKAR Hotel Bintang Sintuk
680,Bougouni,ML,79.34,overcast clouds,11.417,-7.479,Non Stop
681,Kulhudhuffushi,MV,80.51,overcast clouds,6.6221,73.07,Haajy Guest House 1
683,Paulo Afonso,BR,80.8,broken clouds,-9.4061,-38.2147,Pousada Ilha Bela
685,Martapura,ID,75.29,broken clouds,-3.4167,114.85,Montana Hotel Syariah
686,Hami,CN,80.49,clear sky,42.8,93.45,Laoyutang Resort
689,Sidi Ali,DZ,78.01,broken clouds,36.0998,0.4206,Khaled
692,Kathu,TH,85.69,overcast clouds,7.9178,98.3332,Novotel Phuket Resort
693,Rosamorada,MX,87.62,overcast clouds,22.1222,-105.2058,Hotel Gonzalez
694,Bosaso,SO,89.89,clear sky,11.2842,49.1816,Red Sea Hotel
695,Columbus,US,80.87,scattered clouds,39.9612,-82.9988,DoubleTree Suites by Hilton Hotel Columbus Downtown
696,Umm Lajj,SA,85.57,clear sky,25.0213,37.2685,Moon light Furnished Units
697,Napoleon,US,79.38,clear sky,41.3923,-84.1252,Holiday Inn & Suites
